[{"name":"Abbaye","lat":49.39804764,"lon":2.80485587},{"name":"Anatole France","lat":49.40766477,"lon":2.80585215},{"name":"Ancien Hôpital","lat":49.41333122,"lon":2.82221922},{"name":"André Malraux","lat":49.39899283,"lon":2.79499547},{"name":"Aventis","lat":49.4298946,"lon":2.85909382},{"name":"Bannière du Roi","lat":49.42581429,"lon":2.83407066},{"name":"Barbillon","lat":49.43343117,"lon":2.84501186},{"name":"Barthou","lat":49.42435487,"lon":2.81056294},{"name":"Bataillon de France","lat":49.42318066,"lon":2.83879608},{"name":"Bellicart","lat":49.42775134,"lon":2.84775134},{"name":"Blaise Pascal","lat":49.39653433,"lon":2.7942303},{"name":"Bois de Plaisance","lat":49.41216549,"lon":2.77227221},{"name":"Bournonville","lat":49.4082098,"lon":2.83567605},{"name":"Bournonville 2","lat":49.40940895,"lon":2.83461386},{"name":"CIMA","lat":49.38402619,"lon":2.78798181},{"name":"Cailloux","lat":49.40606196,"lon":2.78319209},{"name":"Camp de Royallieu","lat":49.40376097,"lon":2.80485289},{"name":"Camp du Roy","lat":49.40429412,"lon":2.78025839},{"name":"Capucins","lat":49.41454826,"lon":2.82114302},{"name":"Carnot","lat":49.40916859,"lon":2.82971045},{"name":"Carrefour Napoleon","lat":49.40629889,"lon":2.8372406},{"name":"Castors","lat":49.42140038,"lon":2.80572982},{"name":"Centre Commercial Jaux Venette","lat":49.40756881,"lon":2.781388},{"name":"Centre Commercial Royallieu","lat":49.39675825,"lon":2.79676481},{"name":"Centre Culturel","lat":49.40784099,"lon":2.80903387},{"name":"Centre de Recherches","lat":49.400862,"lon":2.79952701},{"name":"Centre de Secours","lat":49.40976531,"lon":2.80160351},{"name":"Chemin d'Armancourt","lat":49.39043224,"lon":2.79487781},{"name":"Château de Venette","lat":49.4185397,"lon":2.80446442},{"name":"Cimetière Nord","lat":49.42463178,"lon":2.84193635},{"name":"Cimetière de Venette","lat":49.41039056,"lon":2.79549645},{"name":"Clos des Roses","lat":49.4071175,"lon":2.80335541},{"name":"Collège Debussy","lat":49.43260057,"lon":2.82868218},{"name":"Croix Rouge","lat":49.40546894,"lon":2.81144864},{"name":"De Lattre de Tassigny","lat":49.40447364,"lon":2.81552788},{"name":"Delaïdde","lat":49.40855946,"lon":2.80908178},{"name":"Docteur Calmette","lat":49.40005296,"lon":2.79259613},{"name":"Docteur Guérin","lat":49.39908306,"lon":2.79013747},{"name":"Domeliers","lat":49.41454693,"lon":2.82370395},{"name":"Ecole Saint-Germain","lat":49.40964606,"lon":2.8160029},{"name":"Edmond Rostand","lat":49.40273881,"lon":2.80203545},{"name":"Edouard Belin","lat":49.38628489,"lon":2.79646461},{"name":"Eglise Saint-Germain","lat":49.41376329,"lon":2.81525655},{"name":"Ferdinand De Lesseps","lat":49.39598559,"lon":2.78486623},{"name":"Foyer Edith Piaf","lat":49.42826788,"lon":2.82051504},{"name":"Gambetta","lat":49.41216561,"lon":2.81492499},{"name":"Gare","lat":49.42172441,"lon":2.82370319},{"name":"Georges Clémenceau","lat":49.42095261,"lon":2.83669498},{"name":"Glacière","lat":49.4056672,"lon":2.81808575},{"name":"Grande-Bretagne","lat":49.40864712,"lon":2.83853005},{"name":"Guy Denielou","lat":49.40091792,"lon":2.79665066},{"name":"Gymnase de Margny","lat":49.42108647,"lon":2.81020228},{"name":"Harlay","lat":49.41933773,"lon":2.82300583},{"name":"Hauts de Venette","lat":49.4140987,"lon":2.79124763},{"name":"Hippolyte Bottier","lat":49.42041389,"lon":2.82567365},{"name":"Huy - Senlis","lat":49.39434732,"lon":2.80465699},{"name":"Hôpital","lat":49.38742027,"lon":2.79080515},{"name":"Hôpital de Jour","lat":49.40491475,"lon":2.79917809},{"name":"Jacques Monod","lat":49.41424588,"lon":2.82926354},{"name":"Jean L'Huillier","lat":49.39913189,"lon":2.81243615},{"name":"Jean Monnet","lat":49.38142743,"lon":2.78142318},{"name":"Jeanne d'Arc","lat":49.42823137,"lon":2.82953549},{"name":"Joseph Cugnot","lat":49.3929995,"lon":2.78338243},{"name":"Justice","lat":49.40800065,"lon":2.82310496},{"name":"La Planchette","lat":49.43031509,"lon":2.83616642},{"name":"La Vènerie","lat":49.40710103,"lon":2.83225117},{"name":"Les Jardins","lat":49.40853278,"lon":2.80671363},{"name":"Libération","lat":49.40499985,"lon":2.82543051},{"name":"Lycée Charles de Gaulle","lat":49.38370756,"lon":2.78186948},{"name":"Lycée Pierre d'Ailly","lat":49.40567941,"lon":2.83715197},{"name":"L’Echarde - Zone Nord","lat":49.42598575,"lon":2.84466269},{"name":"Magenta","lat":49.41620394,"lon":2.8271206},{"name":"Mairie de Margny","lat":49.42425655,"lon":2.81949948},{"name":"Mairie de Venette","lat":49.41604556,"lon":2.79898921},{"name":"Maison de l'Europe","lat":49.40686629,"lon":2.83688821},{"name":"Margny de Gaulle","lat":49.42270135,"lon":2.81072669},{"name":"Marronniers","lat":49.43393425,"lon":2.87603536},{"name":"Mercières","lat":49.39217926,"lon":2.78898929},{"name":"Mercure","lat":49.38071493,"lon":2.78460919},{"name":"Monnet","lat":49.40938534,"lon":2.77841628},{"name":"Mousquetaires","lat":49.43397364,"lon":2.8420421},{"name":"Multiplexe","lat":49.40327028,"lon":2.77528022},{"name":"Mémorial","lat":49.40247043,"lon":2.80868163},{"name":"Octave Butin","lat":49.42662867,"lon":2.81709797},{"name":"Ouïnels","lat":49.43459036,"lon":2.83414195},{"name":"Palais","lat":49.41799162,"lon":2.82931325},{"name":"Paramé","lat":49.42973247,"lon":2.82709838},{"name":"Parc Songeons","lat":49.41845271,"lon":2.82193719},{"name":"Parc de Loisirs","lat":49.38858076,"lon":2.78315025},{"name":"Paul Cosyns","lat":49.42239917,"lon":2.84308488},{"name":"Picardie","lat":49.3997029,"lon":2.80886267},{"name":"Pillet Will","lat":49.39670643,"lon":2.8078579},{"name":"Piscine","lat":49.40213656,"lon":2.81814901},{"name":"Poincaré Centre Commercial","lat":49.42868265,"lon":2.83339607},{"name":"Pommerelles","lat":49.41009691,"lon":2.82896216},{"name":"Port à Bateaux","lat":49.41571422,"lon":2.81936407},{"name":"Port à carreaux","lat":49.43625759,"lon":2.8457699},{"name":"Prairie","lat":49.42087321,"lon":2.80730857},{"name":"Raleigh","lat":49.41063277,"lon":2.80724225},{"name":"Robert Desnos","lat":49.40413116,"lon":2.80204806},{"name":"Robida","lat":49.40439672,"lon":2.81226468},{"name":"Roger Couttolenc","lat":49.41534713,"lon":2.81905771},{"name":"Rond Royal","lat":49.41278537,"lon":2.83708356},{"name":"Route Forestière du Moulin","lat":49.40090534,"lon":2.83377434},{"name":"Royallieu","lat":49.39511514,"lon":2.80356292},{"name":"Rue d'Amiens","lat":49.42258902,"lon":2.82091595},{"name":"Rue de Clermont","lat":49.4189012,"lon":2.81761775},{"name":"Rue de Paris","lat":49.41054828,"lon":2.81727793},{"name":"Rue de l'Aisne","lat":49.42927587,"lon":2.83765751},{"name":"République","lat":49.42888892,"lon":2.82244903},{"name":"Réservoirs","lat":49.40694768,"lon":2.82580698},{"name":"Résidence Universitaire","lat":49.41114849,"lon":2.81316704},{"name":"Saint Corneille","lat":49.41665234,"lon":2.82287024},{"name":"Saint Côme - Mémorial","lat":49.40347318,"lon":2.80724547},{"name":"Saint Fiacre","lat":49.40709784,"lon":2.81297802},{"name":"Saint Jacques","lat":49.4170052,"lon":2.82668764},{"name":"Saint Joseph","lat":49.40908661,"lon":2.82020558},{"name":"Saint-Lazare","lat":49.41188185,"lon":2.83181544},{"name":"Salle des Sports","lat":49.41279039,"lon":2.82711553},{"name":"Soissons","lat":49.42250293,"lon":2.83542941},{"name":"Solférino","lat":49.41854839,"lon":2.82493987},{"name":"Sous-Préfecture","lat":49.41581974,"lon":2.83320277},{"name":"Sports Nautiques","lat":49.42268485,"lon":2.83051504},{"name":"Square Bonnault","lat":49.4072625,"lon":2.82791626},{"name":"Square Nolet","lat":49.41358227,"lon":2.79949022},{"name":"Stade Robert Dubois","lat":49.43015188,"lon":2.82557362},{"name":"Stade du Clos des Roses","lat":49.40728067,"lon":2.80064489},{"name":"Stalingrad","lat":49.39390218,"lon":2.79895507},{"name":"Veneurs","lat":49.41101775,"lon":2.83004486},{"name":"Verdun","lat":49.40288786,"lon":2.82787441},{"name":"Vermandois","lat":49.43153544,"lon":2.84080606},{"name":"Victoire","lat":49.40480199,"lon":2.82326738},{"name":"Victor Hugo","lat":49.41575076,"lon":2.83031065},{"name":"Vivier Corax","lat":49.3960908,"lon":2.79981434},{"name":"Weygand","lat":49.40667877,"lon":2.80760524}]